[
  {
    "id": 1748894489228,
    "name": "Ruta 1",
    "color": "#8b5cf6",
    "travelMode": "DRIVING",
    "isVisible": false,
    "totalDurationMinutes": 134,
    "walkingDurationMinutes": 239,
    "drivingDurationMinutes": 134,
    "markerPositions": [
      {
        "position": {
          "lat": 41.4080692,
          "lng": 2.1348576
        },
        "title": "Autoescuela Madrazo",
        "address": "C. de Teodora Lamadrid, 52, Sarri-Sant Gervasi, 08022 Barcelona, Espa침a"
      },
      {
        "position": {
          "lat": 41.4033522,
          "lng": 2.1345852
        },
        "title": "Autoescuelas Munta&Biker's BCN",
        "address": "Carrer d'Artesa de Segre, 5, Sarri-Sant Gervasi, 08022 Barcelona, Espa침a"
      },
      {
        "position": {
          "lat": 41.3975762,
          "lng": 2.1319435
        },
        "title": "Autoescuela Driving Bcn",
        "address": "Via Augusta, 261, Sarri-Sant Gervasi, 08017 Barcelona, Espa침a"
      },
      {
        "position": {
          "lat": 41.3947106,
          "lng": 2.1247529
        },
        "title": "RACC Autoescuela Sarri",
        "address": "Carrer de Santa Am칟lia, 45, Sarri-Sant Gervasi, 08034 Barcelona, Espa침a"
      },
      {
        "position": {
          "lat": 41.3905285,
          "lng": 2.1258379
        },
        "title": "Autoescola Pedralbes",
        "address": "Carrer del Capit Arenas, 17, ent 2, Distrito de Les Corts, 08034 Barcelona, Espa침a"
      },
      {
        "position": {
          "lat": 41.3932445,
          "lng": 2.1308229
        },
        "title": "Autoescuela Diesel",
        "address": "Ronda del General Mitre, 5, Sarri-Sant Gervasi, 08017 Barcelona, Espa침a"
      },
      {
        "position": {
          "lat": 41.3897994,
          "lng": 2.1384483
        },
        "title": "Autoescuela Montero Espinosa",
        "address": "Carrer d'Enten칞a, 320, Les Corts, 08029 Barcelona, Espa침a"
      },
      {
        "position": {
          "lat": 41.3865867,
          "lng": 2.1363775
        },
        "title": "Autoescuela Barcelona - S칰per Express 游냣游뚳",
        "address": "s/n. Despatx SE, Pla칞a de les Corts, Les Corts, 08029 Barcelona, Espa침a"
      },
      {
        "position": {
          "lat": 41.3937136,
          "lng": 2.1406291
        },
        "title": "Autoescuela Corsa Bori i Fontest",
        "address": "Carrer de Bori i Fontest, 2, Bajos, Sarri-Sant Gervasi, 08021 Barcelona, Espa침a"
      },
      {
        "position": {
          "lat": 41.3969383,
          "lng": 2.14222
        },
        "title": "Autoescuela Amig칩",
        "address": "Carrer d'Amig칩, 71, local 2, Sarri-Sant Gervasi, 08021 Barcelona, Espa침a"
      },
      {
        "position": {
          "lat": 41.3940565,
          "lng": 2.1466551
        },
        "title": "Autoescuelas Master",
        "address": "Travessera de Gr맊ia, 18, Sarri-Sant Gervasi, 08021 Barcelona, Espa침a"
      },
      {
        "position": {
          "lat": 41.4061356,
          "lng": 2.1493947
        },
        "title": "Autoescuela Madrazo",
        "address": "Ronda del General Mitre, 248, Sarri-Sant Gervasi, 08006 Barcelona, Espa침a"
      },
      {
        "position": {
          "lat": 41.4058731,
          "lng": 2.1506251
        },
        "title": "Autoescuela Corsa Lesseps",
        "address": "Carrer Gran de Gr맊ia, 266, Gr맊ia, 08012 Barcelona, Espa침a"
      },
      {
        "position": {
          "lat": 41.4026867,
          "lng": 2.1522761
        },
        "title": "RACC Autoescola Barcelona Gr맊ia",
        "address": "Carrer de Bret칩n de los Herreros, 2, Gr맊ia, 08012 Barcelona, Espa침a"
      },
      {
        "position": {
          "lat": 41.4046826,
          "lng": 2.1560776
        },
        "title": "Autoescuela Oton",
        "address": "Carrer de Verdi, 54, Gr맊ia, 08012 Barcelona, Espa침a"
      },
      {
        "position": {
          "lat": 41.3972087,
          "lng": 2.1552676
        },
        "title": "hoy-voy Autoescuela",
        "address": "Pla칞a de Narc칤s Oller, 3, Gr맊ia, 08006 Barcelona, Espa침a"
      },
      {
        "position": {
          "lat": 41.3962181,
          "lng": 2.1572625
        },
        "title": "hoy-voy Autoescuela",
        "address": "Av. Diagonal, 460, 5A, Gracia, 08006 Barcelona, Espa침a"
      },
      {
        "position": {
          "lat": 41.4023528,
          "lng": 2.1593756
        },
        "title": "Autoescuela Bah칤a-Barcelona- Travessera de Gr맊ia 187",
        "address": "Travessera de Gr맊ia, 187, Gr맊ia, 08012 Barcelona, Espa침a"
      },
      {
        "position": {
          "lat": 41.4068759,
          "lng": 2.161579
        },
        "title": "Autoescola Escorial S.L.",
        "address": "Carrer de l'Escorial, 23, Gr맊ia, 08024 Barcelona, Espa침a"
      },
      {
        "position": {
          "lat": 41.4058174,
          "lng": 2.1623318
        },
        "title": "Autoescuela Joanic",
        "address": "Carrer de Bruniquer, 67, 1, Gr맊ia, 08024 Barcelona, Espa침a"
      },
      {
        "position": {
          "lat": 41.4116273,
          "lng": 2.1639429
        },
        "title": "Autoescuela SOY18 Guinard칩",
        "address": "Ronda del Guinard칩, 26, Horta-Guinard칩, 08024 Barcelona, Espa침a"
      },
      {
        "position": {
          "lat": 41.4097914,
          "lng": 2.1643401
        },
        "title": "RACC Autoescola Guinard칩",
        "address": "Carrer de Pi i Margall, 88, Gr맊ia, 08025 Barcelona, Espa침a"
      },
      {
        "position": {
          "lat": 41.4136729,
          "lng": 2.1617288
        },
        "title": "AUTOESCUELA SANLLEHY",
        "address": "Av. de la Mare de D칠u de Montserrat, 24, Horta-Guinard칩, 08024 Barcelona, Espa침a"
      },
      {
        "position": {
          "lat": 41.4025118,
          "lng": 2.1630666
        },
        "title": "Autoescuela DAR",
        "address": "Carrer de Bail칟n, 217, Gr맊ia, 08037 Barcelona, Espa침a"
      },
      {
        "position": {
          "lat": 41.4012374,
          "lng": 2.16473
        },
        "title": "Autoescuela La Universal",
        "address": "Carrer de Bail칟n, 181, Gr맊ia, 08012 Barcelona, Espa침a"
      },
      {
        "position": {
          "lat": 41.3997298,
          "lng": 2.168549
        },
        "title": "Autoescola SOY18",
        "address": "Pg. de St. Joan, 111, local 2, L'Eixample, 08037 Barcelona, Espa침a"
      },
      {
        "position": {
          "lat": 41.3970429,
          "lng": 2.1718153
        },
        "title": "햃쒬쮐걣쥃쮏햟 Costa Drive Barcelona",
        "address": "Carrer d'Arag칩, 366, L'Eixample, 08009 Barcelona, Espa침a"
      },
      {
        "position": {
          "lat": 41.3947563,
          "lng": 2.1669343
        },
        "title": "Autoescola Barcelona Roger de Ll칰ria",
        "address": "Carrer de Roger de Ll칰ria, 72, L'Eixample, 08009 Barcelona, Espa침a"
      }
    ]
  },
  {
    "id": 1748894601206,
    "name": "Ruta 2",
    "color": "#ef4444",
    "travelMode": "DRIVING",
    "isVisible": true,
    "totalDurationMinutes": 105,
    "walkingDurationMinutes": 219,
    "drivingDurationMinutes": 105,
    "markerPositions": [
      {
        "position": {
          "lat": 41.3917516,
          "lng": 2.1532491
        },
        "title": "RACC Autoescola Barcelona Crsega",
        "address": "Carrer de Crsega, 216, L'Eixample, 08036 Barcelona, Espa침a"
      },
      {
        "position": {
          "lat": 41.3901853,
          "lng": 2.15729
        },
        "title": "Autoescuela Aribau",
        "address": "Carrer d'Aribau, 96, L'Eixample, 08036 Barcelona, Espa침a"
      },
      {
        "position": {
          "lat": 41.392542,
          "lng": 2.1693448
        },
        "title": "Autoescuela SOY18 Diputaci칩",
        "address": "Carrer de la Diputaci칩, 301 Metro Passeig de Gr맊ia L2, L3 i L4, 08009, L'Eixample, 08009 Barcelona, Espa침a"
      },
      {
        "position": {
          "lat": 41.3855088,
          "lng": 2.1681547
        },
        "title": "Autoescola Green",
        "address": "Carrer de Pelai, 44, Ciutat Vella, 08001 Barcelona, Espa침a"
      },
      {
        "position": {
          "lat": 41.3859535,
          "lng": 2.1545407
        },
        "title": "RACC Autoescola Eixample",
        "address": "Carrer de Val칟ncia, 146, 152, Eixample, 08011 Barcelona, Espa침a"
      },
      {
        "position": {
          "lat": 41.3844249,
          "lng": 2.1491414
        },
        "title": "Autoescuela Stop Barcelona",
        "address": "Carrer de Cal막ria, 202, L'Eixample, 08029 Barcelona, Espa침a"
      },
      {
        "position": {
          "lat": 41.3843702,
          "lng": 2.144756
        },
        "title": "Escola Espai",
        "address": "Carrer d'Enten칞a, 182, L'Eixample, 08029 Barcelona, Espa침a"
      },
      {
        "position": {
          "lat": 41.3810765,
          "lng": 2.1467046
        },
        "title": "La Meva Autoescuela",
        "address": "Carrer de Vilamar칤, 130 bxs, L'Eixample, 08015 Barcelona, Espa침a"
      },
      {
        "position": {
          "lat": 41.38138,
          "lng": 2.153098
        },
        "title": "Autoescuela Alba.Dos",
        "address": "Carrer de Cal막ria, 136, L'Eixample, 08015 Barcelona, Espa침a"
      },
      {
        "position": {
          "lat": 41.3801461,
          "lng": 2.1569585
        },
        "title": "hoy-voy Autoescuela",
        "address": "Carrer de Viladomat, 114, L'Eixample, 08015 Barcelona, Espa침a"
      },
      {
        "position": {
          "lat": 41.3821172,
          "lng": 2.1637414
        },
        "title": "Autoescuela 2000 S.C.P.",
        "address": "Rda. de Sant Antoni, 62, PR, Ciutat Vella, 08001 Barcelona, Espa침a"
      },
      {
        "position": {
          "lat": 41.3797094,
          "lng": 2.1441469
        },
        "title": "Autoescuelas Hostafrancs",
        "address": "Carrer de Tarragona, 106, L'Eixample, 08015 Barcelona, Espa침a"
      },
      {
        "position": {
          "lat": 41.3773074,
          "lng": 2.1533111
        },
        "title": "Autoescuela Montero Espinosa",
        "address": "Carrer d'Enten칞a, 43, L'Eixample, 08015 Barcelona, Espa침a"
      },
      {
        "position": {
          "lat": 41.3785624,
          "lng": 2.1584051
        },
        "title": "hoy-voy Autoescuela Badalona | Salida de pr치cticas Poble Sec",
        "address": "Carrer de Floridablanca, 69, L'Eixample, 08015 Barcelona, Espa침a"
      },
      {
        "position": {
          "lat": 41.37815620000001,
          "lng": 2.168069500000001
        },
        "title": "Alamgirian Driving School",
        "address": "Carrer de Sant Paci, 4, Ciutat Vella, 08001 Barcelona, Espa침a"
      },
      {
        "position": {
          "lat": 41.3765614,
          "lng": 2.1652757
        },
        "title": "Autoescuela Car Land",
        "address": "Carrer del Marqu칟s de Campo Sagrado, 30, L'Eixample, 08015 Barcelona, Espa침a"
      },
      {
        "position": {
          "lat": 41.3758099,
          "lng": 2.1613987
        },
        "title": "Autoescola Pallars Parlament",
        "address": "Carrer del Parlament, 11, L'Eixample, 08015 Barcelona, Espa침a"
      },
      {
        "position": {
          "lat": 41.3757689,
          "lng": 2.1573329
        },
        "title": "AUTOESCOLA BOXES",
        "address": "Carrer de Tamarit, 100, L'Eixample, 08015 Barcelona, Espa침a"
      },
      {
        "position": {
          "lat": 41.3760851,
          "lng": 2.1575437
        },
        "title": "autoescuela PorLibre",
        "address": "comte borrell 62 atico Lugar de recogida de pr치cticas c/rocafort con, Carrer de Tamarit, 08015 Barcelona, Espa침a"
      },
      {
        "position": {
          "lat": 41.3747218,
          "lng": 2.1565499
        },
        "title": "Autoescuela Aqu칤 Si Sl",
        "address": "Av. del Paral췅lel, 163, Sants-Montju칦c, 08004 Barcelona, Espa침a"
      },
      {
        "position": {
          "lat": 41.3752401,
          "lng": 2.1529908
        },
        "title": "Autoescola Paral췅lel",
        "address": "Av. del Paral췅lel, 190, L'Eixample, 08015 Barcelona, Espa침a"
      },
      {
        "position": {
          "lat": 41.3727216,
          "lng": 2.1464921
        },
        "title": "Soy18 Autoescuela",
        "address": "C-31, 306, Distrito de Sants-Montju칦c, 08004 Barcelona, Espa침a"
      },
      {
        "position": {
          "lat": 41.3754943,
          "lng": 2.1409454
        },
        "title": "Autoescuelas Hostafrancs",
        "address": "Carrer de la Creu Coberta, 130, Sants-Montju칦c, 08014 Barcelona, Espa침a"
      },
      {
        "position": {
          "lat": 41.3789232,
          "lng": 2.1345262
        },
        "title": "Autoescuela Blanco Online",
        "address": "Carrer de Galileu, 111, Sants-Montju칦c, 08028 Barcelona, Espa침a"
      },
      {
        "position": {
          "lat": 41.3706465,
          "lng": 2.1374344
        },
        "title": "Autoescuela Olzinelles",
        "address": "Carrer d'Olzinelles, 104, Sants-Montju칦c, 08014 Barcelona, Espa침a"
      },
      {
        "position": {
          "lat": 41.3678169,
          "lng": 2.1394946
        },
        "title": "RACC Autoescola Barcelona La Campana",
        "address": "Gran Via de les Corts Catalanes, 178, Sants-Montju칦c, 08038 Barcelona, Espa침a"
      },
      {
        "position": {
          "lat": 41.3681671,
          "lng": 2.1299643
        },
        "title": "Autoescuela Gomar Hospitalet",
        "address": "Carrer Santa Eul맓ia, 22, 08902 L'Hospitalet de Llobregat, Barcelona, Espa침a"
      }
    ]
  }
]